{
    "nodes": [
        {
            "city": "New York", 
            "airport": "John F Kennedy Intl", 
            "name": "John F Kennedy Intl", 
            "lat": "40.63975111", 
            "country": "USA", 
            "iata": "JFK", 
            "type": "airport", 
            "state": "NY", 
            "long": "-73.77892556", 
            "id": 1915
        }, 
        {
            "city": "Boston", 
            "airport": "Gen Edw L Logan Intl", 
            "name": "Gen Edw L Logan Intl", 
            "lat": "42.3643475", 
            "country": "USA", 
            "iata": "BOS", 
            "type": "airport", 
            "state": "MA", 
            "long": "-71.00517917", 
            "id": 993
        }, 
        {
            "city": "Oakland", 
            "airport": "Metropolitan Oakland International", 
            "name": "Metropolitan Oakland International", 
            "lat": "37.72129083", 
            "country": "USA", 
            "iata": "OAK", 
            "type": "airport", 
            "state": "CA", 
            "long": "-122.2207167", 
            "id": 2464
        }, 
        {
            "city": "Boise", 
            "airport": "Boise Air Terminal", 
            "name": "Boise Air Terminal", 
            "lat": "43.56444444", 
            "country": "USA", 
            "iata": "BOI", 
            "type": "airport", 
            "state": "ID", 
            "long": "-116.2227778", 
            "id": 991
        }, 
        {
            "city": "Yuma", 
            "airport": "Yuma MCAS-Yuma International", 
            "name": "Yuma MCAS-Yuma International", 
            "lat": "32.65658333", 
            "country": "USA", 
            "iata": "YUM", 
            "type": "airport", 
            "state": "AZ", 
            "long": "-114.6059722", 
            "id": 3360
        }, 
        {
            "city": "Durango", 
            "airport": "Durango-La Plata County", 
            "name": "Durango-La Plata County", 
            "lat": "37.15151667", 
            "country": "USA", 
            "iata": "DRO", 
            "type": "airport", 
            "state": "CO", 
            "long": "-107.7537692", 
            "id": 1296
        }, 
        {
            "city": "Casper", 
            "airport": "Natrona County Intl", 
            "name": "Natrona County Intl", 
            "lat": "42.90835556", 
            "country": "USA", 
            "iata": "CPR", 
            "type": "airport", 
            "state": "WY", 
            "long": "-106.4644661", 
            "id": 1172
        }, 
        {
            "city": "Pocatello", 
            "airport": "Pocatello Regional", 
            "name": "Pocatello Regional", 
            "lat": "42.91130556", 
            "country": "USA", 
            "iata": "PIH", 
            "type": "airport", 
            "state": "ID", 
            "long": "-112.5958611", 
            "id": 2622
        }, 
        {
            "city": "San Diego", 
            "airport": "San Diego International-Lindbergh ", 
            "name": "San Diego International-Lindbergh ", 
            "lat": "32.73355611", 
            "country": "USA", 
            "iata": "SAN", 
            "type": "airport", 
            "state": "CA", 
            "long": "-117.1896567", 
            "id": 2881
        }, 
        {
            "city": "Arlington", 
            "airport": "Ronald Reagan Washington National", 
            "name": "Ronald Reagan Washington National", 
            "lat": "38.85208333", 
            "country": "USA", 
            "iata": "DCA", 
            "type": "airport", 
            "state": "VA", 
            "long": "-77.03772222", 
            "id": 1253
        }, 
        {
            "city": "Rapid City", 
            "airport": "Rapid City Regional", 
            "name": "Rapid City Regional", 
            "lat": "44.04532139", 
            "country": "USA", 
            "iata": "RAP", 
            "type": "airport", 
            "state": "SD", 
            "long": "-103.0573708", 
            "id": 2745
        }, 
        {
            "city": "Baltimore", 
            "airport": "Baltimore-Washington International", 
            "name": "Baltimore-Washington International", 
            "lat": "39.17540167", 
            "country": "USA", 
            "iata": "BWI", 
            "type": "airport", 
            "state": "MD", 
            "long": "-76.66819833", 
            "id": 1030
        }, 
        {
            "city": "Pittsburgh", 
            "airport": "Pittsburgh International", 
            "name": "Pittsburgh International", 
            "lat": "40.49146583", 
            "country": "USA", 
            "iata": "PIT", 
            "type": "airport", 
            "state": "PA", 
            "long": "-80.23287083", 
            "id": 2626
        }, 
        {
            "city": "San Antonio", 
            "airport": "San Antonio International", 
            "name": "San Antonio International", 
            "lat": "29.53369444", 
            "country": "USA", 
            "iata": "SAT", 
            "type": "airport", 
            "state": "TX", 
            "long": "-98.46977778", 
            "id": 2883
        }, 
        {
            "city": "Monterey", 
            "airport": "Monterey Peninsula", 
            "name": "Monterey Peninsula", 
            "lat": "36.5869825", 
            "country": "USA", 
            "iata": "MRY", 
            "type": "airport", 
            "state": "CA", 
            "long": "-121.8429478", 
            "id": 2322
        }, 
        {
            "city": "Tampa", 
            "airport": "Tampa International ", 
            "name": "Tampa International ", 
            "lat": "27.97547222", 
            "country": "USA", 
            "iata": "TPA", 
            "type": "airport", 
            "state": "FL", 
            "long": "-82.53325", 
            "id": 3126
        }, 
        {
            "city": "Chantilly", 
            "airport": "Washington Dulles International", 
            "name": "Washington Dulles International", 
            "lat": "38.94453194", 
            "country": "USA", 
            "iata": "IAD", 
            "type": "airport", 
            "state": "VA", 
            "long": "-77.45580972", 
            "id": 1835
        }, 
        {
            "city": "Omaha", 
            "airport": "Eppley Airfield", 
            "name": "Eppley Airfield", 
            "lat": "41.30251861", 
            "country": "USA", 
            "iata": "OMA", 
            "type": "airport", 
            "state": "NE", 
            "long": "-95.89417306", 
            "id": 2507
        }, 
        {
            "city": "Bakersfield", 
            "airport": "Meadows ", 
            "name": "Meadows ", 
            "lat": "35.43359806", 
            "country": "USA", 
            "iata": "BFL", 
            "type": "airport", 
            "state": "CA", 
            "long": "-119.0567681", 
            "id": 944
        }, 
        {
            "city": "Jackson", 
            "airport": "Jackson Hole", 
            "name": "Jackson Hole", 
            "lat": "43.60732417", 
            "country": "USA", 
            "iata": "JAC", 
            "type": "airport", 
            "state": "WY", 
            "long": "-110.7377389", 
            "id": 1904
        }, 
        {
            "city": "Santa Ana", 
            "airport": "John Wayne /Orange Co", 
            "name": "John Wayne /Orange Co", 
            "lat": "33.67565861", 
            "country": "USA", 
            "iata": "SNA", 
            "type": "airport", 
            "state": "CA", 
            "long": "-117.8682225", 
            "id": 2985
        }, 
        {
            "city": "Philadelphia", 
            "airport": "Philadelphia Intl", 
            "name": "Philadelphia Intl", 
            "lat": "39.87195278", 
            "country": "USA", 
            "iata": "PHL", 
            "type": "airport", 
            "state": "PA", 
            "long": "-75.24114083", 
            "id": 2613
        }, 
        {
            "city": "San Francisco", 
            "airport": "San Francisco International", 
            "name": "San Francisco International", 
            "lat": "37.61900194", 
            "country": "USA", 
            "iata": "SFO", 
            "type": "airport", 
            "state": "CA", 
            "long": "-122.3748433", 
            "id": 2934
        }, 
        {
            "city": "Phoenix", 
            "airport": "Phoenix Sky Harbor International", 
            "name": "Phoenix Sky Harbor International", 
            "lat": "33.43416667", 
            "country": "USA", 
            "iata": "PHX", 
            "type": "airport", 
            "state": "AZ", 
            "long": "-112.0080556", 
            "id": 2618
        }, 
        {
            "city": "Los Angeles", 
            "airport": "Los Angeles International", 
            "name": "Los Angeles International", 
            "lat": "33.94253611", 
            "country": "USA", 
            "iata": "LAX", 
            "type": "airport", 
            "state": "CA", 
            "long": "-118.4080744", 
            "id": 2039
        }, 
        {
            "city": "Las Vegas", 
            "airport": "McCarran International", 
            "name": "McCarran International", 
            "lat": "36.08036111", 
            "country": "USA", 
            "iata": "LAS", 
            "type": "airport", 
            "state": "NV", 
            "long": "-115.1523333", 
            "id": 2037
        }, 
        {
            "city": "Grand Junction", 
            "airport": "Walker ", 
            "name": "Walker ", 
            "lat": "39.1224125", 
            "country": "USA", 
            "iata": "GJT", 
            "type": "airport", 
            "state": "CO", 
            "long": "-108.5267347", 
            "id": 1612
        }, 
        {
            "city": "Ft. Lauderdale", 
            "airport": "Fort Lauderdale-Hollywood Int'l", 
            "name": "Fort Lauderdale-Hollywood Int'l", 
            "lat": "26.07258333", 
            "country": "USA", 
            "iata": "FLL", 
            "type": "airport", 
            "state": "FL", 
            "long": "-80.15275", 
            "id": 1520
        }, 
        {
            "city": "Denver", 
            "airport": "Denver Intl", 
            "name": "Denver Intl", 
            "lat": "39.85840806", 
            "country": "USA", 
            "iata": "DEN", 
            "type": "airport", 
            "state": "CO", 
            "long": "-104.6670019", 
            "id": 1263
        }, 
        {
            "city": "Sacramento", 
            "airport": "Sacramento International", 
            "name": "Sacramento International", 
            "lat": "38.69542167", 
            "country": "USA", 
            "iata": "SMF", 
            "type": "airport", 
            "state": "CA", 
            "long": "-121.5907669", 
            "id": 2979
        }, 
        {
            "city": "Hayden", 
            "airport": "Yampa Valley", 
            "name": "Yampa Valley", 
            "lat": "40.48118028", 
            "country": "USA", 
            "iata": "HDN", 
            "type": "airport", 
            "state": "CO", 
            "long": "-107.2176597", 
            "id": 1703
        }, 
        {
            "city": "Detroit", 
            "airport": "Detroit Metropolitan-Wayne County", 
            "name": "Detroit Metropolitan-Wayne County", 
            "lat": "42.21205889", 
            "country": "USA", 
            "iata": "DTW", 
            "type": "airport", 
            "state": "MI", 
            "long": "-83.34883583", 
            "id": 1305
        }, 
        {
            "city": "Burbank", 
            "airport": "Burbank-Glendale-Pasadena", 
            "name": "Burbank-Glendale-Pasadena", 
            "lat": "34.20061917", 
            "country": "USA", 
            "iata": "BUR", 
            "type": "airport", 
            "state": "CA", 
            "long": "-118.3584969", 
            "id": 1018
        }, 
        {
            "city": "Medford", 
            "airport": "Rogue Valley International", 
            "name": "Rogue Valley International", 
            "lat": "42.37422778", 
            "country": "USA", 
            "iata": "MFR", 
            "type": "airport", 
            "state": "OR", 
            "long": "-122.8734978", 
            "id": 2234
        }, 
        {
            "city": "Spokane", 
            "airport": "Spokane Intl", 
            "name": "Spokane Intl", 
            "lat": "47.61985556", 
            "country": "USA", 
            "iata": "GEG", 
            "type": "airport", 
            "state": "WA", 
            "long": "-117.5338425", 
            "id": 1595
        }, 
        {
            "city": "Yakima", 
            "airport": "Yakima Air Terminal", 
            "name": "Yakima Air Terminal", 
            "lat": "46.56816972", 
            "country": "USA", 
            "iata": "YKM", 
            "type": "airport", 
            "state": "WA", 
            "long": "-120.5440594", 
            "id": 3357
        }, 
        {
            "city": "Bellingham", 
            "airport": "Bellingham Intl", 
            "name": "Bellingham Intl", 
            "lat": "48.79275", 
            "country": "USA", 
            "iata": "BLI", 
            "type": "airport", 
            "state": "WA", 
            "long": "-122.5375278", 
            "id": 976
        }, 
        {
            "city": "Newark", 
            "airport": "Newark Intl", 
            "name": "Newark Intl", 
            "lat": "40.69249722", 
            "country": "USA", 
            "iata": "EWR", 
            "type": "airport", 
            "state": "NJ", 
            "long": "-74.16866056", 
            "id": 1436
        }, 
        {
            "city": "Reno", 
            "airport": "Reno/Tahoe International", 
            "name": "Reno/Tahoe International", 
            "lat": "39.49857611", 
            "country": "USA", 
            "iata": "RNO", 
            "type": "airport", 
            "state": "NV", 
            "long": "-119.7680647", 
            "id": 2788
        }, 
        {
            "city": "Anchorage", 
            "airport": "Ted Stevens Anchorage International", 
            "name": "Ted Stevens Anchorage International", 
            "lat": "61.17432028", 
            "country": "USA", 
            "iata": "ANC", 
            "type": "airport", 
            "state": "AK", 
            "long": "-149.9961856", 
            "id": 839
        }, 
        {
            "city": "Pasco", 
            "airport": "Tri-Cities", 
            "name": "Tri-Cities", 
            "lat": "46.26468028", 
            "country": "USA", 
            "iata": "PSC", 
            "type": "airport", 
            "state": "WA", 
            "long": "-119.1190292", 
            "id": 2673
        }, 
        {
            "city": "Helena", 
            "airport": "Helena Regional", 
            "name": "Helena Regional", 
            "lat": "46.60681806", 
            "country": "USA", 
            "iata": "HLN", 
            "type": "airport", 
            "state": "MT", 
            "long": "-111.9827503", 
            "id": 1731
        }, 
        {
            "city": "Oklahoma City", 
            "airport": "Will Rogers World", 
            "name": "Will Rogers World", 
            "lat": "35.39308833", 
            "country": "USA", 
            "iata": "OKC", 
            "type": "airport", 
            "state": "OK", 
            "long": "-97.60073389", 
            "id": 2492
        }, 
        {
            "city": "Butte", 
            "airport": "Bert Mooney", 
            "name": "Bert Mooney", 
            "lat": "45.95479528", 
            "country": "USA", 
            "iata": "BTM", 
            "type": "airport", 
            "state": "MT", 
            "long": "-112.49746", 
            "id": 1008
        }, 
        {
            "city": "Palm Springs", 
            "airport": "Palm Springs International", 
            "name": "Palm Springs International", 
            "lat": "33.82921556", 
            "country": "USA", 
            "iata": "PSP", 
            "type": "airport", 
            "state": "CA", 
            "long": "-116.5062531", 
            "id": 2680
        }, 
        {
            "city": "Elko", 
            "airport": "Elko Regional", 
            "name": "Elko Regional", 
            "lat": "40.82492611", 
            "country": "USA", 
            "iata": "EKO", 
            "type": "airport", 
            "state": "NV", 
            "long": "-115.7916964", 
            "id": 1382
        }, 
        {
            "city": "Colorado Springs", 
            "airport": "City of Colorado Springs Muni", 
            "name": "City of Colorado Springs Muni", 
            "lat": "38.80580556", 
            "country": "USA", 
            "iata": "COS", 
            "type": "airport", 
            "state": "CO", 
            "long": "-104.70025", 
            "id": 1166
        }, 
        {
            "city": "Hailey", 
            "airport": "Friedman Memorial", 
            "name": "Friedman Memorial", 
            "lat": "43.50484139", 
            "country": "USA", 
            "iata": "SUN", 
            "type": "airport", 
            "state": "ID", 
            "long": "-114.2965903", 
            "id": 3028
        }, 
        {
            "city": "Atlanta", 
            "airport": "William B Hartsfield-Atlanta Intl", 
            "name": "William B Hartsfield-Atlanta Intl", 
            "lat": "33.64044444", 
            "country": "USA", 
            "iata": "ATL", 
            "type": "airport", 
            "state": "GA", 
            "long": "-84.42694444", 
            "id": 880
        }, 
        {
            "city": "Honolulu", 
            "airport": "Honolulu International", 
            "name": "Honolulu International", 
            "lat": "21.31869111", 
            "country": "USA", 
            "iata": "HNL", 
            "type": "airport", 
            "state": "HI", 
            "long": "-157.9224072", 
            "id": 1737
        }, 
        {
            "city": "Cody", 
            "airport": "Yellowstone Regional", 
            "name": "Yellowstone Regional", 
            "lat": "44.52019417", 
            "country": "USA", 
            "iata": "COD", 
            "type": "airport", 
            "state": "WY", 
            "long": "-109.0237961", 
            "id": 1160
        }, 
        {
            "city": "Bozeman", 
            "airport": "Gallatin ", 
            "name": "Gallatin ", 
            "lat": "45.77690139", 
            "country": "USA", 
            "iata": "BZN", 
            "type": "airport", 
            "state": "MT", 
            "long": "-111.1530072", 
            "id": 1038
        }, 
        {
            "city": "Idaho Falls", 
            "airport": "Idaho Falls Regional", 
            "name": "Idaho Falls Regional", 
            "lat": "43.51455556", 
            "country": "USA", 
            "iata": "IDA", 
            "type": "airport", 
            "state": "ID", 
            "long": "-112.0701667", 
            "id": 1842
        }, 
        {
            "city": "Kalispell", 
            "airport": "Glacier Park Intl", 
            "name": "Glacier Park Intl", 
            "lat": "48.31140472", 
            "country": "USA", 
            "iata": "FCA", 
            "type": "airport", 
            "state": "MT", 
            "long": "-114.2550694", 
            "id": 1493
        }, 
        {
            "city": "Aspen", 
            "airport": "Aspen-Pitkin Co/Sardy ", 
            "name": "Aspen-Pitkin Co/Sardy ", 
            "lat": "39.22316", 
            "country": "USA", 
            "iata": "ASE", 
            "type": "airport", 
            "state": "CO", 
            "long": "-106.868845", 
            "id": 869
        }, 
        {
            "city": "Chicago", 
            "airport": "Chicago Midway", 
            "name": "Chicago Midway", 
            "lat": "41.7859825", 
            "country": "USA", 
            "iata": "MDW", 
            "type": "airport", 
            "state": "IL", 
            "long": "-87.75242444", 
            "id": 2222
        }, 
        {
            "city": "Raleigh", 
            "airport": "Raleigh-Durham International", 
            "name": "Raleigh-Durham International", 
            "lat": "35.87763889", 
            "country": "USA", 
            "iata": "RDU", 
            "type": "airport", 
            "state": "NC", 
            "long": "-78.78747222", 
            "id": 2760
        }, 
        {
            "city": "Seattle", 
            "airport": "Seattle-Tacoma Intl", 
            "name": "Seattle-Tacoma Intl", 
            "lat": "47.44898194", 
            "country": "USA", 
            "iata": "SEA", 
            "type": "airport", 
            "state": "WA", 
            "long": "-122.3093131", 
            "id": 2921
        }, 
        {
            "city": "Great Falls", 
            "airport": "Great Falls Intl", 
            "name": "Great Falls Intl", 
            "lat": "47.48200194", 
            "country": "USA", 
            "iata": "GTF", 
            "type": "airport", 
            "state": "MT", 
            "long": "-111.3706853", 
            "id": 1652
        }, 
        {
            "city": "Portland", 
            "airport": "Portland Intl", 
            "name": "Portland Intl", 
            "lat": "45.58872222", 
            "country": "USA", 
            "iata": "PDX", 
            "type": "airport", 
            "state": "OR", 
            "long": "-122.5975", 
            "id": 2596
        }, 
        {
            "city": "Cleveland", 
            "airport": "Cleveland-Hopkins Intl", 
            "name": "Cleveland-Hopkins Intl", 
            "lat": "41.41089417", 
            "country": "USA", 
            "iata": "CLE", 
            "type": "airport", 
            "state": "OH", 
            "long": "-81.84939667", 
            "id": 1137
        }, 
        {
            "city": "Eugene", 
            "airport": "Mahlon Sweet ", 
            "name": "Mahlon Sweet ", 
            "lat": "44.12326", 
            "country": "USA", 
            "iata": "EUG", 
            "type": "airport", 
            "state": "OR", 
            "long": "-123.2186856", 
            "id": 1425
        }, 
        {
            "city": "Austin", 
            "airport": "Austin-Bergstrom International", 
            "name": "Austin-Bergstrom International", 
            "lat": "30.19453278", 
            "country": "USA", 
            "iata": "AUS", 
            "type": "airport", 
            "state": "TX", 
            "long": "-97.66987194", 
            "id": 890
        }, 
        {
            "city": "Redmond", 
            "airport": "Roberts ", 
            "name": "Roberts ", 
            "lat": "44.25406722", 
            "country": "USA", 
            "iata": "RDM", 
            "type": "airport", 
            "state": "OR", 
            "long": "-121.1499633", 
            "id": 2758
        }, 
        {
            "city": "San Jose", 
            "airport": "San Jose International", 
            "name": "San Jose International", 
            "lat": "37.36186194", 
            "country": "USA", 
            "iata": "SJC", 
            "type": "airport", 
            "state": "CA", 
            "long": "-121.9290089", 
            "id": 2959
        }, 
        {
            "city": "El Paso", 
            "airport": "El Paso International", 
            "name": "El Paso International", 
            "lat": "31.80666667", 
            "country": "USA", 
            "iata": "ELP", 
            "type": "airport", 
            "state": "TX", 
            "long": "-106.3778056", 
            "id": 1393
        }, 
        {
            "city": "San Luis Obispo", 
            "airport": "San Luis Obispo Co-McChesney ", 
            "name": "San Luis Obispo Co-McChesney ", 
            "lat": "35.23705806", 
            "country": "USA", 
            "iata": "SBP", 
            "type": "airport", 
            "state": "CA", 
            "long": "-120.6423931", 
            "id": 2892
        }, 
        {
            "city": "Tucson", 
            "airport": "Tucson International", 
            "name": "Tucson International", 
            "lat": "32.11608333", 
            "country": "USA", 
            "iata": "TUS", 
            "type": "airport", 
            "state": "AZ", 
            "long": "-110.9410278", 
            "id": 3148
        }, 
        {
            "city": "Santa Barbara", 
            "airport": "Santa Barbara Municipal", 
            "name": "Santa Barbara Municipal", 
            "lat": "34.42621194", 
            "country": "USA", 
            "iata": "SBA", 
            "type": "airport", 
            "state": "CA", 
            "long": "-119.8403733", 
            "id": 2887
        }, 
        {
            "city": "Tulsa", 
            "airport": "Tulsa International", 
            "name": "Tulsa International", 
            "lat": "36.19837222", 
            "country": "USA", 
            "iata": "TUL", 
            "type": "airport", 
            "state": "OK", 
            "long": "-95.88824167", 
            "id": 3146
        }, 
        {
            "city": "Chicago", 
            "airport": "Chicago O'Hare International", 
            "name": "Chicago O'Hare International", 
            "lat": "41.979595", 
            "country": "USA", 
            "iata": "ORD", 
            "type": "airport", 
            "state": "IL", 
            "long": "-87.90446417", 
            "id": 2531
        }, 
        {
            "city": "Twin Falls", 
            "airport": "Joslin Field - Magic Valley", 
            "name": "Joslin Field - Magic Valley", 
            "lat": "42.48180389", 
            "country": "USA", 
            "iata": "TWF", 
            "type": "airport", 
            "state": "ID", 
            "long": "-114.4877356", 
            "id": 3157
        }, 
        {
            "city": "New Orleans", 
            "airport": "New Orleans International ", 
            "name": "New Orleans International ", 
            "lat": "29.99338889", 
            "country": "USA", 
            "iata": "MSY", 
            "type": "airport", 
            "state": "LA", 
            "long": "-90.25802778", 
            "id": 2330
        }, 
        {
            "city": "Minneapolis", 
            "airport": "Minneapolis-St Paul Intl", 
            "name": "Minneapolis-St Paul Intl", 
            "lat": "44.88054694", 
            "country": "USA", 
            "iata": "MSP", 
            "type": "airport", 
            "state": "MN", 
            "long": "-93.2169225", 
            "id": 2327
        }, 
        {
            "city": "Missoula", 
            "airport": "Missoula International", 
            "name": "Missoula International", 
            "lat": "46.91630556", 
            "country": "USA", 
            "iata": "MSO", 
            "type": "airport", 
            "state": "MT", 
            "long": "-114.0905556", 
            "id": 2326
        }, 
        {
            "city": "Covington", 
            "airport": "Cincinnati Northern Kentucky Intl", 
            "name": "Cincinnati Northern Kentucky Intl", 
            "lat": "39.04614278", 
            "country": "USA", 
            "iata": "CVG", 
            "type": "airport", 
            "state": "KY", 
            "long": "-84.6621725", 
            "id": 1202
        }, 
        {
            "city": "Houston", 
            "airport": "George Bush Intercontinental", 
            "name": "George Bush Intercontinental", 
            "lat": "29.98047222", 
            "country": "USA", 
            "iata": "IAH", 
            "type": "airport", 
            "state": "TX", 
            "long": "-95.33972222", 
            "id": 1837
        }, 
        {
            "city": "Billings", 
            "airport": "Billings Logan Intl", 
            "name": "Billings Logan Intl", 
            "lat": "45.8076625", 
            "country": "USA", 
            "iata": "BIL", 
            "type": "airport", 
            "state": "MT", 
            "long": "-108.5428611", 
            "id": 962
        }, 
        {
            "city": "St George", 
            "airport": "St George Muni", 
            "name": "St George Muni", 
            "lat": "37.09058333", 
            "country": "USA", 
            "iata": "SGU", 
            "type": "airport", 
            "state": "UT", 
            "long": "-113.5930556", 
            "id": 2944
        }, 
        {
            "city": "Fresno", 
            "airport": "Fresno Yosemite International", 
            "name": "Fresno Yosemite International", 
            "lat": "36.77619444", 
            "country": "USA", 
            "iata": "FAT", 
            "type": "airport", 
            "state": "CA", 
            "long": "-119.7181389", 
            "id": 1488
        }, 
        {
            "city": "Charlotte", 
            "airport": "Charlotte/Douglas International", 
            "name": "Charlotte/Douglas International", 
            "lat": "35.21401111", 
            "country": "USA", 
            "iata": "CLT", 
            "type": "airport", 
            "state": "NC", 
            "long": "-80.94312583", 
            "id": 1144
        }, 
        {
            "city": "Dallas-Fort Worth", 
            "airport": "Dallas-Fort Worth International", 
            "name": "Dallas-Fort Worth International", 
            "lat": "32.89595056", 
            "country": "USA", 
            "iata": "DFW", 
            "type": "airport", 
            "state": "TX", 
            "long": "-97.0372", 
            "id": 1268
        }, 
        {
            "city": "Ontario", 
            "airport": "Ontario International", 
            "name": "Ontario International", 
            "lat": "34.056", 
            "country": "USA", 
            "iata": "ONT", 
            "type": "airport", 
            "state": "CA", 
            "long": "-117.6011944", 
            "id": 2517
        }, 
        {
            "city": "St Louis", 
            "airport": "Lambert-St Louis International", 
            "name": "Lambert-St Louis International", 
            "lat": "38.74768694", 
            "country": "USA", 
            "iata": "STL", 
            "type": "airport", 
            "state": "MO", 
            "long": "-90.35998972", 
            "id": 3020
        }, 
        {
            "city": "Montrose", 
            "airport": "Montrose Regional", 
            "name": "Montrose Regional", 
            "lat": "38.50886722", 
            "country": "USA", 
            "iata": "MTJ", 
            "type": "airport", 
            "state": "CO", 
            "long": "-107.8938333", 
            "id": 2332
        }, 
        {
            "city": "Albuquerque", 
            "airport": "Albuquerque International", 
            "name": "Albuquerque International", 
            "lat": "35.04022222", 
            "country": "USA", 
            "iata": "ABQ", 
            "type": "airport", 
            "state": "NM", 
            "long": "-106.6091944", 
            "id": 762
        }, 
        {
            "city": "Salem", 
            "airport": "McNary Fld", 
            "name": "McNary Fld", 
            "lat": "44.90952778", 
            "country": "USA", 
            "iata": "SLE", 
            "type": "airport", 
            "state": "OR", 
            "long": "-123.0025", 
            "id": 2970
        }, 
        {
            "city": "Salt Lake City", 
            "airport": "Salt Lake City Intl", 
            "name": "Salt Lake City Intl", 
            "lat": "40.78838778", 
            "country": "USA", 
            "iata": "SLC", 
            "type": "airport", 
            "state": "UT", 
            "long": "-111.9777731", 
            "id": 2969
        }, 
        {
            "city": "Orlando", 
            "airport": "Orlando International", 
            "name": "Orlando International", 
            "lat": "28.42888889", 
            "country": "USA", 
            "iata": "MCO", 
            "type": "airport", 
            "state": "FL", 
            "long": "-81.31602778", 
            "id": 2212
        }, 
        {
            "city": "Kansas City", 
            "airport": "Kansas City International", 
            "name": "Kansas City International", 
            "lat": "39.29760528", 
            "country": "USA", 
            "iata": "MCI", 
            "type": "airport", 
            "state": "MO", 
            "long": "-94.71390556", 
            "id": 2209
        }, 
        {
            "city": "Long Beach", 
            "airport": "Long Beach (Daugherty )", 
            "name": "Long Beach (Daugherty )", 
            "lat": "33.81772222", 
            "country": "USA", 
            "iata": "LGB", 
            "type": "airport", 
            "state": "CA", 
            "long": "-118.1516111", 
            "id": 2062
        }, 
        {
            "city": "New York", 
            "airport": "LaGuardia", 
            "name": "LaGuardia", 
            "lat": "40.77724306", 
            "country": "USA", 
            "iata": "LGA", 
            "type": "airport", 
            "state": "NY", 
            "long": "-73.87260917", 
            "id": 2061
        }, 
        {
            "city": "Kahului", 
            "airport": "Kahului", 
            "name": "Kahului", 
            "lat": "20.89864972", 
            "country": "USA", 
            "iata": "OGG", 
            "type": "airport", 
            "state": "HI", 
            "long": "-156.4304578", 
            "id": 2482
        }
    ], 
    "links": [
        {
            "id": 0, 
            "source": 2969, 
            "target": 762, 
            "origin": "SLC", 
            "dest": "ABQ", 
            "number_plane": 5, 
            "dep_delay": 147.0, 
            "arr_delay": 215.0, 
            "passengers": 470.0, 
            "number_carrier": 4, 
            "seats": 1220.0, 
            "mail": 0.0, 
            "type": "freight", 
            "force": 1, 
            "freight": 1398.0
        }, 
        {
            "id": 1, 
            "source": 2969, 
            "target": 991, 
            "origin": "SLC", 
            "dest": "BOI", 
            "number_plane": 7, 
            "dep_delay": 324.0, 
            "arr_delay": 409.0, 
            "passengers": 499.0, 
            "number_carrier": 6, 
            "seats": 854.0, 
            "mail": 0.0, 
            "type": "freight", 
            "force": 1, 
            "freight": 2582.0
        }, 
        {
            "id": 2, 
            "source": 2969, 
            "target": 1030, 
            "origin": "SLC", 
            "dest": "BWI", 
            "number_plane": 2, 
            "dep_delay": 141.0, 
            "arr_delay": 151.0, 
            "passengers": 292.0, 
            "number_carrier": 2, 
            "seats": 274.0, 
            "mail": 0.0, 
            "type": "passengers", 
            "force": 1, 
            "freight": 300.0
        }, 
        {
            "id": 3, 
            "source": 2969, 
            "target": 1263, 
            "origin": "SLC", 
            "dest": "DEN", 
            "number_plane": 21, 
            "dep_delay": 964.0, 
            "arr_delay": 1148.0, 
            "passengers": 5810.0, 
            "number_carrier": 18, 
            "seats": 2562.0, 
            "mail": 915.0, 
            "type": "freight", 
            "force": 1, 
            "freight": 6790.0
        }, 
        {
            "id": 4, 
            "source": 2969, 
            "target": 1595, 
            "origin": "SLC", 
            "dest": "GEG", 
            "number_plane": 5, 
            "dep_delay": 108.0, 
            "arr_delay": 102.0, 
            "passengers": 263.0, 
            "number_carrier": 5, 
            "seats": 1370.0, 
            "mail": 0.0, 
            "type": "freight", 
            "force": 1, 
            "freight": 1762.0
        }, 
        {
            "id": 5, 
            "source": 2969, 
            "target": 2037, 
            "origin": "SLC", 
            "dest": "LAS", 
            "number_plane": 13, 
            "dep_delay": 421.0, 
            "arr_delay": 650.0, 
            "passengers": 2105.0, 
            "number_carrier": 7, 
            "seats": 3172.0, 
            "mail": 0.0, 
            "type": "freight", 
            "force": 1, 
            "freight": 3122.0
        }, 
        {
            "id": 6, 
            "source": 2969, 
            "target": 2039, 
            "origin": "SLC", 
            "dest": "LAX", 
            "number_plane": 13, 
            "dep_delay": 789.0, 
            "arr_delay": 1077.0, 
            "passengers": 1514.0, 
            "number_carrier": 10, 
            "seats": 1586.0, 
            "mail": 0.0, 
            "type": "passengers", 
            "force": 1, 
            "freight": 0.0
        }, 
        {
            "id": 7, 
            "source": 2969, 
            "target": 2222, 
            "origin": "SLC", 
            "dest": "MDW", 
            "number_plane": 2, 
            "dep_delay": 219.0, 
            "arr_delay": 213.0, 
            "passengers": 188.0, 
            "number_carrier": 1, 
            "seats": 244.0, 
            "mail": 0.0, 
            "type": "freight", 
            "force": 1, 
            "freight": 4184.0
        }, 
        {
            "id": 8, 
            "source": 2969, 
            "target": 2464, 
            "origin": "SLC", 
            "dest": "OAK", 
            "number_plane": 6, 
            "dep_delay": 228.0, 
            "arr_delay": 367.0, 
            "passengers": 267.0, 
            "number_carrier": 4, 
            "seats": 732.0, 
            "mail": 0.0, 
            "type": "freight", 
            "force": 1, 
            "freight": 9846.0
        }, 
        {
            "id": 9, 
            "source": 2969, 
            "target": 2596, 
            "origin": "SLC", 
            "dest": "PDX", 
            "number_plane": 7, 
            "dep_delay": 186.0, 
            "arr_delay": 186.0, 
            "passengers": 685.0, 
            "number_carrier": 6, 
            "seats": 854.0, 
            "mail": 0.0, 
            "type": "passengers", 
            "force": 1, 
            "freight": 76.0
        }, 
        {
            "id": 10, 
            "source": 2969, 
            "target": 2618, 
            "origin": "SLC", 
            "dest": "PHX", 
            "number_plane": 18, 
            "dep_delay": 1008.0, 
            "arr_delay": 1270.0, 
            "passengers": 1734.0, 
            "number_carrier": 14, 
            "seats": 2196.0, 
            "mail": 0.0, 
            "type": "passengers", 
            "force": 1, 
            "freight": 856.0
        }, 
        {
            "id": 11, 
            "source": 2969, 
            "target": 2788, 
            "origin": "SLC", 
            "dest": "RNO", 
            "number_plane": 4, 
            "dep_delay": 98.0, 
            "arr_delay": 144.0, 
            "passengers": 281.0, 
            "number_carrier": 4, 
            "seats": 548.0, 
            "mail": 0.0, 
            "type": "freight", 
            "force": 1, 
            "freight": 1575.0
        }, 
        {
            "id": 12, 
            "source": 2969, 
            "target": 2921, 
            "origin": "SLC", 
            "dest": "SEA", 
            "number_plane": 7, 
            "dep_delay": 227.0, 
            "arr_delay": 302.0, 
            "passengers": 1102.0, 
            "number_carrier": 6, 
            "seats": 854.0, 
            "mail": 0.0, 
            "type": "freight", 
            "force": 1, 
            "freight": 1848.0
        }, 
        {
            "id": 13, 
            "source": 2969, 
            "target": 3020, 
            "origin": "SLC", 
            "dest": "STL", 
            "number_plane": 4, 
            "dep_delay": 328.0, 
            "arr_delay": 313.0, 
            "passengers": 232.0, 
            "number_carrier": 3, 
            "seats": 488.0, 
            "mail": 0.0, 
            "type": "passengers", 
            "force": 1, 
            "freight": 0.0
        }, 
        {
            "id": 14, 
            "source": 2969, 
            "target": 2492, 
            "origin": "SLC", 
            "dest": "OKC", 
            "number_plane": 2, 
            "dep_delay": 12.0, 
            "arr_delay": -5.0, 
            "passengers": 383.0, 
            "number_carrier": 2, 
            "seats": 100.0, 
            "mail": 0.0, 
            "type": "passengers", 
            "force": 1, 
            "freight": 0.0
        }, 
        {
            "id": 15, 
            "source": 2969, 
            "target": 2517, 
            "origin": "SLC", 
            "dest": "ONT", 
            "number_plane": 5, 
            "dep_delay": 182.0, 
            "arr_delay": 184.0, 
            "passengers": 466.0, 
            "number_carrier": 4, 
            "seats": 500.0, 
            "mail": 0.0, 
            "type": "passengers", 
            "force": 1, 
            "freight": 0.0
        }, 
        {
            "id": 16, 
            "source": 2969, 
            "target": 1425, 
            "origin": "SLC", 
            "dest": "EUG", 
            "number_plane": 1, 
            "dep_delay": 6.0, 
            "arr_delay": 60.0, 
            "passengers": 49.0, 
            "number_carrier": 1, 
            "seats": 50.0, 
            "mail": 0.0, 
            "type": "passengers", 
            "force": 1, 
            "freight": 0.0
        }, 
        {
            "id": 17, 
            "source": 2969, 
            "target": 1837, 
            "origin": "SLC", 
            "dest": "IAH", 
            "number_plane": 9, 
            "dep_delay": 161.0, 
            "arr_delay": 124.0, 
            "passengers": 2282.0, 
            "number_carrier": 7, 
            "seats": 7200.0, 
            "mail": 0.0, 
            "type": "passengers", 
            "force": 1, 
            "freight": 910.0
        }, 
        {
            "id": 18, 
            "source": 2969, 
            "target": 3157, 
            "origin": "SLC", 
            "dest": "TWF", 
            "number_plane": 14, 
            "dep_delay": 717.0, 
            "arr_delay": 743.0, 
            "passengers": 672.0, 
            "number_carrier": 1, 
            "seats": 700.0, 
            "mail": 0.0, 
            "type": "passengers", 
            "force": 1, 
            "freight": 0.0
        }, 
        {
            "id": 19, 
            "source": 2969, 
            "target": 2622, 
            "origin": "SLC", 
            "dest": "PIH", 
            "number_plane": 5, 
            "dep_delay": 169.0, 
            "arr_delay": 186.0, 
            "passengers": 160.0, 
            "number_carrier": 1, 
            "seats": 250.0, 
            "mail": 0.0, 
            "type": "passengers", 
            "force": 1, 
            "freight": 0.0
        }, 
        {
            "id": 20, 
            "source": 2969, 
            "target": 1160, 
            "origin": "SLC", 
            "dest": "COD", 
            "number_plane": 2, 
            "dep_delay": 0.0, 
            "arr_delay": -12.0, 
            "passengers": 26.0, 
            "number_carrier": 1, 
            "seats": 60.0, 
            "mail": 0.0, 
            "type": "passengers", 
            "force": 1, 
            "freight": 0.0
        }, 
        {
            "id": 21, 
            "source": 2969, 
            "target": 3028, 
            "origin": "SLC", 
            "dest": "SUN", 
            "number_plane": 3, 
            "dep_delay": 78.0, 
            "arr_delay": 74.0, 
            "passengers": 7680.0, 
            "number_carrier": 1, 
            "seats": 12690.0, 
            "mail": 0.0, 
            "type": "passengers", 
            "force": 1, 
            "freight": 1182.0
        }, 
        {
            "id": 22, 
            "source": 2969, 
            "target": 1382, 
            "origin": "SLC", 
            "dest": "EKO", 
            "number_plane": 4, 
            "dep_delay": 113.0, 
            "arr_delay": 151.0, 
            "passengers": 6948.0, 
            "number_carrier": 1, 
            "seats": 13920.0, 
            "mail": 12.0, 
            "type": "passengers", 
            "force": 1, 
            "freight": 704.0
        }, 
        {
            "id": 23, 
            "source": 2969, 
            "target": 2944, 
            "origin": "SLC", 
            "dest": "SGU", 
            "number_plane": 8, 
            "dep_delay": 75.0, 
            "arr_delay": 258.0, 
            "passengers": 18824.0, 
            "number_carrier": 1, 
            "seats": 42720.0, 
            "mail": 56.0, 
            "type": "passengers", 
            "force": 1, 
            "freight": 1512.0
        }, 
        {
            "id": 24, 
            "source": 2969, 
            "target": 1172, 
            "origin": "SLC", 
            "dest": "CPR", 
            "number_plane": 3, 
            "dep_delay": 38.0, 
            "arr_delay": 61.0, 
            "passengers": 84.0, 
            "number_carrier": 1, 
            "seats": 90.0, 
            "mail": 0.0, 
            "type": "passengers", 
            "force": 1, 
            "freight": 0.0
        }, 
        {
            "id": 25, 
            "source": 2969, 
            "target": 3360, 
            "origin": "SLC", 
            "dest": "YUM", 
            "number_plane": 2, 
            "dep_delay": 105.0, 
            "arr_delay": 139.0, 
            "passengers": 2994.0, 
            "number_carrier": 1, 
            "seats": 5000.0, 
            "mail": 0.0, 
            "type": "passengers", 
            "force": 1, 
            "freight": 0.0
        }, 
        {
            "id": 26, 
            "source": 2969, 
            "target": 1018, 
            "origin": "SLC", 
            "dest": "BUR", 
            "number_plane": 5, 
            "dep_delay": 123.0, 
            "arr_delay": 221.0, 
            "passengers": 900.0, 
            "number_carrier": 2, 
            "seats": 380.0, 
            "mail": 0.0, 
            "type": "passengers", 
            "force": 1, 
            "freight": 0.0
        }, 
        {
            "id": 27, 
            "source": 2969, 
            "target": 1393, 
            "origin": "SLC", 
            "dest": "ELP", 
            "number_plane": 1, 
            "dep_delay": -5.0, 
            "arr_delay": 0.0, 
            "passengers": 795.0, 
            "number_carrier": 1, 
            "seats": 1450.0, 
            "mail": 46.0, 
            "type": "passengers", 
            "force": 1, 
            "freight": 26.0
        }, 
        {
            "id": 28, 
            "source": 2969, 
            "target": 944, 
            "origin": "SLC", 
            "dest": "BFL", 
            "number_plane": 1, 
            "dep_delay": 145.0, 
            "arr_delay": 153.0, 
            "passengers": 1193.0, 
            "number_carrier": 1, 
            "seats": 1500.0, 
            "mail": 173.0, 
            "type": "passengers", 
            "force": 1, 
            "freight": 0.0
        }, 
        {
            "id": 29, 
            "source": 2969, 
            "target": 1652, 
            "origin": "SLC", 
            "dest": "GTF", 
            "number_plane": 3, 
            "dep_delay": 298.0, 
            "arr_delay": 316.0, 
            "passengers": 7953.0, 
            "number_carrier": 1, 
            "seats": 12300.0, 
            "mail": 12.0, 
            "type": "passengers", 
            "force": 1, 
            "freight": 663.0
        }, 
        {
            "id": 30, 
            "source": 2969, 
            "target": 1612, 
            "origin": "SLC", 
            "dest": "GJT", 
            "number_plane": 4, 
            "dep_delay": 74.0, 
            "arr_delay": 104.0, 
            "passengers": 108.0, 
            "number_carrier": 1, 
            "seats": 120.0, 
            "mail": 0.0, 
            "type": "passengers", 
            "force": 1, 
            "freight": 0.0
        }, 
        {
            "id": 31, 
            "source": 2969, 
            "target": 2745, 
            "origin": "SLC", 
            "dest": "RAP", 
            "number_plane": 2, 
            "dep_delay": 10.0, 
            "arr_delay": -1.0, 
            "passengers": 0.0, 
            "number_carrier": 1, 
            "seats": 60.0, 
            "mail": 0.0, 
            "type": "unknown", 
            "force": 1, 
            "freight": 0.0
        }, 
        {
            "id": 32, 
            "source": 2969, 
            "target": 1842, 
            "origin": "SLC", 
            "dest": "IDA", 
            "number_plane": 5, 
            "dep_delay": 143.0, 
            "arr_delay": 94.0, 
            "passengers": 110.0, 
            "number_carrier": 1, 
            "seats": 150.0, 
            "mail": 0.0, 
            "type": "passengers", 
            "force": 1, 
            "freight": 0.0
        }, 
        {
            "id": 33, 
            "source": 2969, 
            "target": 1166, 
            "origin": "SLC", 
            "dest": "COS", 
            "number_plane": 3, 
            "dep_delay": 64.0, 
            "arr_delay": 84.0, 
            "passengers": 183.0, 
            "number_carrier": 1, 
            "seats": 210.0, 
            "mail": 0.0, 
            "type": "passengers", 
            "force": 1, 
            "freight": 0.0
        }, 
        {
            "id": 34, 
            "source": 2969, 
            "target": 2507, 
            "origin": "SLC", 
            "dest": "OMA", 
            "number_plane": 2, 
            "dep_delay": 357.0, 
            "arr_delay": 332.0, 
            "passengers": 2548.0, 
            "number_carrier": 1, 
            "seats": 3000.0, 
            "mail": 0.0, 
            "type": "passengers", 
            "force": 1, 
            "freight": 20.0
        }, 
        {
            "id": 35, 
            "source": 2969, 
            "target": 3148, 
            "origin": "SLC", 
            "dest": "TUS", 
            "number_plane": 5, 
            "dep_delay": 391.0, 
            "arr_delay": 505.0, 
            "passengers": 230.0, 
            "number_carrier": 1, 
            "seats": 350.0, 
            "mail": 0.0, 
            "type": "passengers", 
            "force": 1, 
            "freight": 0.0
        }, 
        {
            "id": 36, 
            "source": 2969, 
            "target": 2673, 
            "origin": "SLC", 
            "dest": "PSC", 
            "number_plane": 3, 
            "dep_delay": 200.0, 
            "arr_delay": 191.0, 
            "passengers": 198.0, 
            "number_carrier": 1, 
            "seats": 210.0, 
            "mail": 0.0, 
            "type": "passengers", 
            "force": 1, 
            "freight": 0.0
        }, 
        {
            "id": 37, 
            "source": 2969, 
            "target": 962, 
            "origin": "SLC", 
            "dest": "BIL", 
            "number_plane": 4, 
            "dep_delay": 83.0, 
            "arr_delay": 113.0, 
            "passengers": 92.0, 
            "number_carrier": 1, 
            "seats": 120.0, 
            "mail": 0.0, 
            "type": "passengers", 
            "force": 1, 
            "freight": 0.0
        }, 
        {
            "id": 38, 
            "source": 2969, 
            "target": 2062, 
            "origin": "SLC", 
            "dest": "LGB", 
            "number_plane": 7, 
            "dep_delay": 409.0, 
            "arr_delay": 570.0, 
            "passengers": 32994.0, 
            "number_carrier": 4, 
            "seats": 20650.0, 
            "mail": 0.0, 
            "type": "passengers", 
            "force": 1, 
            "freight": 0.0
        }, 
        {
            "id": 39, 
            "source": 2969, 
            "target": 2326, 
            "origin": "SLC", 
            "dest": "MSO", 
            "number_plane": 4, 
            "dep_delay": 156.0, 
            "arr_delay": 176.0, 
            "passengers": 208.0, 
            "number_carrier": 1, 
            "seats": 280.0, 
            "mail": 0.0, 
            "type": "passengers", 
            "force": 1, 
            "freight": 0.0
        }, 
        {
            "id": 40, 
            "source": 2969, 
            "target": 1038, 
            "origin": "SLC", 
            "dest": "BZN", 
            "number_plane": 6, 
            "dep_delay": 219.0, 
            "arr_delay": 255.0, 
            "passengers": 264.0, 
            "number_carrier": 1, 
            "seats": 456.0, 
            "mail": 0.0, 
            "type": "passengers", 
            "force": 1, 
            "freight": 0.0
        }, 
        {
            "id": 41, 
            "source": 2969, 
            "target": 1493, 
            "origin": "SLC", 
            "dest": "FCA", 
            "number_plane": 4, 
            "dep_delay": 47.0, 
            "arr_delay": 62.0, 
            "passengers": 180.0, 
            "number_carrier": 1, 
            "seats": 280.0, 
            "mail": 0.0, 
            "type": "passengers", 
            "force": 1, 
            "freight": 0.0
        }, 
        {
            "id": 42, 
            "source": 2969, 
            "target": 1731, 
            "origin": "SLC", 
            "dest": "HLN", 
            "number_plane": 2, 
            "dep_delay": 140.0, 
            "arr_delay": 136.0, 
            "passengers": 1848.0, 
            "number_carrier": 1, 
            "seats": 2640.0, 
            "mail": 0.0, 
            "type": "passengers", 
            "force": 1, 
            "freight": 10.0
        }, 
        {
            "id": 43, 
            "source": 2969, 
            "target": 2959, 
            "origin": "SLC", 
            "dest": "SJC", 
            "number_plane": 2, 
            "dep_delay": 53.0, 
            "arr_delay": 96.0, 
            "passengers": 188.0, 
            "number_carrier": 2, 
            "seats": 152.0, 
            "mail": 0.0, 
            "type": "passengers", 
            "force": 1, 
            "freight": 0.0
        }, 
        {
            "id": 44, 
            "source": 2969, 
            "target": 3146, 
            "origin": "SLC", 
            "dest": "TUL", 
            "number_plane": 2, 
            "dep_delay": 27.0, 
            "arr_delay": 31.0, 
            "passengers": 2394.0, 
            "number_carrier": 1, 
            "seats": 2900.0, 
            "mail": 0.0, 
            "type": "passengers", 
            "force": 1, 
            "freight": 0.0
        }, 
        {
            "id": 45, 
            "source": 2969, 
            "target": 1296, 
            "origin": "SLC", 
            "dest": "DRO", 
            "number_plane": 2, 
            "dep_delay": 63.0, 
            "arr_delay": 76.0, 
            "passengers": 1652.0, 
            "number_carrier": 1, 
            "seats": 3100.0, 
            "mail": 0.0, 
            "type": "passengers", 
            "force": 1, 
            "freight": 66.0
        }, 
        {
            "id": 46, 
            "source": 2969, 
            "target": 1488, 
            "origin": "SLC", 
            "dest": "FAT", 
            "number_plane": 2, 
            "dep_delay": 4.0, 
            "arr_delay": 62.0, 
            "passengers": 4662.0, 
            "number_carrier": 1, 
            "seats": 5300.0, 
            "mail": 268.0, 
            "type": "passengers", 
            "force": 1, 
            "freight": 436.0
        }, 
        {
            "id": 47, 
            "source": 2969, 
            "target": 2934, 
            "origin": "SLC", 
            "dest": "SFO", 
            "number_plane": 9, 
            "dep_delay": 716.0, 
            "arr_delay": 1093.0, 
            "passengers": 1545.0, 
            "number_carrier": 4, 
            "seats": 1188.0, 
            "mail": 199.0, 
            "type": "passengers", 
            "force": 1, 
            "freight": 335.0
        }, 
        {
            "id": 48, 
            "source": 2969, 
            "target": 2322, 
            "origin": "SLC", 
            "dest": "MRY", 
            "number_plane": 1, 
            "dep_delay": 50.0, 
            "arr_delay": 91.0, 
            "passengers": 243.0, 
            "number_carrier": 1, 
            "seats": 300.0, 
            "mail": 0.0, 
            "type": "passengers", 
            "force": 1, 
            "freight": 0.0
        }, 
        {
            "id": 49, 
            "source": 2969, 
            "target": 2209, 
            "origin": "SLC", 
            "dest": "MCI", 
            "number_plane": 2, 
            "dep_delay": 240.0, 
            "arr_delay": 212.0, 
            "passengers": 126.0, 
            "number_carrier": 1, 
            "seats": 152.0, 
            "mail": 0.0, 
            "type": "passengers", 
            "force": 1, 
            "freight": 0.0
        }, 
        {
            "id": 50, 
            "source": 2969, 
            "target": 2234, 
            "origin": "SLC", 
            "dest": "MFR", 
            "number_plane": 2, 
            "dep_delay": 105.0, 
            "arr_delay": 144.0, 
            "passengers": 4424.0, 
            "number_carrier": 1, 
            "seats": 5700.0, 
            "mail": 0.0, 
            "type": "passengers", 
            "force": 1, 
            "freight": 120.0
        }, 
        {
            "id": 51, 
            "source": 2969, 
            "target": 2985, 
            "origin": "SLC", 
            "dest": "SNA", 
            "number_plane": 5, 
            "dep_delay": 287.0, 
            "arr_delay": 453.0, 
            "passengers": 420.0, 
            "number_carrier": 3, 
            "seats": 250.0, 
            "mail": 0.0, 
            "type": "passengers", 
            "force": 1, 
            "freight": 34.0
        }, 
        {
            "id": 52, 
            "source": 2969, 
            "target": 2970, 
            "origin": "SLC", 
            "dest": "SLE", 
            "number_plane": 1, 
            "dep_delay": 128.0, 
            "arr_delay": 134.0, 
            "passengers": 394.0, 
            "number_carrier": 1, 
            "seats": 800.0, 
            "mail": 0.0, 
            "type": "passengers", 
            "force": 1, 
            "freight": 0.0
        }, 
        {
            "id": 53, 
            "source": 2969, 
            "target": 2979, 
            "origin": "SLC", 
            "dest": "SMF", 
            "number_plane": 4, 
            "dep_delay": 149.0, 
            "arr_delay": 192.0, 
            "passengers": 428.0, 
            "number_carrier": 3, 
            "seats": 280.0, 
            "mail": 0.0, 
            "type": "passengers", 
            "force": 1, 
            "freight": 24.0
        }, 
        {
            "id": 54, 
            "source": 2969, 
            "target": 1008, 
            "origin": "SLC", 
            "dest": "BTM", 
            "number_plane": 2, 
            "dep_delay": 53.0, 
            "arr_delay": 37.0, 
            "passengers": 3712.0, 
            "number_carrier": 1, 
            "seats": 5400.0, 
            "mail": 0.0, 
            "type": "passengers", 
            "force": 1, 
            "freight": 0.0
        }, 
        {
            "id": 55, 
            "source": 2969, 
            "target": 2680, 
            "origin": "SLC", 
            "dest": "PSP", 
            "number_plane": 1, 
            "dep_delay": -4.0, 
            "arr_delay": -2.0, 
            "passengers": 67.0, 
            "number_carrier": 1, 
            "seats": 70.0, 
            "mail": 0.0, 
            "type": "passengers", 
            "force": 1, 
            "freight": 0.0
        }, 
        {
            "id": 56, 
            "source": 2969, 
            "target": 976, 
            "origin": "SLC", 
            "dest": "BLI", 
            "number_plane": 1, 
            "dep_delay": 40.0, 
            "arr_delay": 25.0, 
            "passengers": 925.0, 
            "number_carrier": 1, 
            "seats": 1450.0, 
            "mail": 0.0, 
            "type": "passengers", 
            "force": 1, 
            "freight": 101.0
        }, 
        {
            "id": 57, 
            "source": 2969, 
            "target": 3357, 
            "origin": "SLC", 
            "dest": "YKM", 
            "number_plane": 1, 
            "dep_delay": -3.0, 
            "arr_delay": 2.0, 
            "passengers": 1011.0, 
            "number_carrier": 1, 
            "seats": 1250.0, 
            "mail": 0.0, 
            "type": "passengers", 
            "force": 1, 
            "freight": 0.0
        }, 
        {
            "id": 58, 
            "source": 2969, 
            "target": 2892, 
            "origin": "SLC", 
            "dest": "SBP", 
            "number_plane": 1, 
            "dep_delay": 109.0, 
            "arr_delay": 144.0, 
            "passengers": 755.0, 
            "number_carrier": 1, 
            "seats": 1400.0, 
            "mail": 0.0, 
            "type": "passengers", 
            "force": 1, 
            "freight": 16.0
        }, 
        {
            "id": 59, 
            "source": 2969, 
            "target": 2883, 
            "origin": "SLC", 
            "dest": "SAT", 
            "number_plane": 2, 
            "dep_delay": 102.0, 
            "arr_delay": 127.0, 
            "passengers": 120.0, 
            "number_carrier": 1, 
            "seats": 140.0, 
            "mail": 0.0, 
            "type": "passengers", 
            "force": 1, 
            "freight": 0.0
        }, 
        {
            "id": 60, 
            "source": 2969, 
            "target": 2887, 
            "origin": "SLC", 
            "dest": "SBA", 
            "number_plane": 1, 
            "dep_delay": 66.0, 
            "arr_delay": 85.0, 
            "passengers": 1718.0, 
            "number_carrier": 1, 
            "seats": 2500.0, 
            "mail": 0.0, 
            "type": "passengers", 
            "force": 1, 
            "freight": 0.0
        }, 
        {
            "id": 61, 
            "source": 2969, 
            "target": 2332, 
            "origin": "SLC", 
            "dest": "MTJ", 
            "number_plane": 1, 
            "dep_delay": 8.0, 
            "arr_delay": 45.0, 
            "passengers": 23.0, 
            "number_carrier": 1, 
            "seats": 30.0, 
            "mail": 0.0, 
            "type": "passengers", 
            "force": 1, 
            "freight": 0.0
        }, 
        {
            "id": 62, 
            "source": 2969, 
            "target": 2758, 
            "origin": "SLC", 
            "dest": "RDM", 
            "number_plane": 1, 
            "dep_delay": -7.0, 
            "arr_delay": -1.0, 
            "passengers": 2037.0, 
            "number_carrier": 1, 
            "seats": 2800.0, 
            "mail": 0.0, 
            "type": "passengers", 
            "force": 1, 
            "freight": 10.0
        }, 
        {
            "id": 63, 
            "source": 2969, 
            "target": 1904, 
            "origin": "SLC", 
            "dest": "JAC", 
            "number_plane": 3, 
            "dep_delay": 18.0, 
            "arr_delay": 22.0, 
            "passengers": 65.0, 
            "number_carrier": 2, 
            "seats": 90.0, 
            "mail": 0.0, 
            "type": "unknown", 
            "force": 1, 
            "freight": 0.0
        }, 
        {
            "id": 64, 
            "source": 2969, 
            "target": 2327, 
            "origin": "SLC", 
            "dest": "MSP", 
            "number_plane": 6, 
            "dep_delay": 229.0, 
            "arr_delay": 248.0, 
            "passengers": 721.0, 
            "number_carrier": 6, 
            "seats": 1200.0, 
            "mail": 0.0, 
            "type": "passengers", 
            "force": 1, 
            "freight": 90.0
        }, 
        {
            "id": 65, 
            "source": 2969, 
            "target": 890, 
            "origin": "SLC", 
            "dest": "AUS", 
            "number_plane": 1, 
            "dep_delay": 87.0, 
            "arr_delay": 71.0, 
            "passengers": 61.0, 
            "number_carrier": 1, 
            "seats": 76.0, 
            "mail": 0.0, 
            "type": "passengers", 
            "force": 1, 
            "freight": 0.0
        }, 
        {
            "id": 66, 
            "source": 2969, 
            "target": 1703, 
            "origin": "SLC", 
            "dest": "HDN", 
            "number_plane": 2, 
            "dep_delay": 1.0, 
            "arr_delay": 48.0, 
            "passengers": 80.0, 
            "number_carrier": 1, 
            "seats": 100.0, 
            "mail": 0.0, 
            "type": "passengers", 
            "force": 1, 
            "freight": 0.0
        }, 
        {
            "id": 67, 
            "source": 2969, 
            "target": 2626, 
            "origin": "SLC", 
            "dest": "PIT", 
            "number_plane": 1, 
            "dep_delay": 125.0, 
            "arr_delay": 138.0, 
            "passengers": 133.0, 
            "number_carrier": 1, 
            "seats": 146.0, 
            "mail": 0.0, 
            "type": "passengers", 
            "force": 1, 
            "freight": 0.0
        }, 
        {
            "id": 68, 
            "source": 2969, 
            "target": 1305, 
            "origin": "SLC", 
            "dest": "DTW", 
            "number_plane": 1, 
            "dep_delay": 182.0, 
            "arr_delay": 183.0, 
            "passengers": 60.0, 
            "number_carrier": 1, 
            "seats": 76.0, 
            "mail": 0.0, 
            "type": "passengers", 
            "force": 1, 
            "freight": 0.0
        }, 
        {
            "id": 69, 
            "source": 2969, 
            "target": 2531, 
            "origin": "SLC", 
            "dest": "ORD", 
            "number_plane": 8, 
            "dep_delay": 513.0, 
            "arr_delay": 718.0, 
            "passengers": 11086.0, 
            "number_carrier": 8, 
            "seats": 400.0, 
            "mail": 13602.0, 
            "type": "passengers", 
            "force": 1, 
            "freight": 430.0
        }, 
        {
            "id": 70, 
            "source": 2969, 
            "target": 2330, 
            "origin": "SLC", 
            "dest": "MSY", 
            "number_plane": 1, 
            "dep_delay": 77.0, 
            "arr_delay": 61.0, 
            "passengers": 62.0, 
            "number_carrier": 1, 
            "seats": 70.0, 
            "mail": 0.0, 
            "type": "passengers", 
            "force": 1, 
            "freight": 0.0
        }, 
        {
            "id": 71, 
            "source": 2969, 
            "target": 869, 
            "origin": "SLC", 
            "dest": "ASE", 
            "number_plane": 2, 
            "dep_delay": 0, 
            "arr_delay": 0, 
            "passengers": 1438.0, 
            "number_carrier": 1, 
            "seats": 2940.0, 
            "mail": 0.0, 
            "type": "passengers", 
            "force": 1, 
            "freight": 0.0
        }, 
        {
            "id": 72, 
            "source": 2969, 
            "target": 1137, 
            "origin": "SLC", 
            "dest": "CLE", 
            "number_plane": 1, 
            "dep_delay": 33.0, 
            "arr_delay": 72.0, 
            "passengers": 60.0, 
            "number_carrier": 1, 
            "seats": 70.0, 
            "mail": 0.0, 
            "type": "passengers", 
            "force": 1, 
            "freight": 0.0
        }, 
        {
            "id": 73, 
            "source": 2969, 
            "target": 1268, 
            "origin": "SLC", 
            "dest": "DFW", 
            "number_plane": 7, 
            "dep_delay": 86.0, 
            "arr_delay": 239.0, 
            "passengers": 1030.0, 
            "number_carrier": 7, 
            "seats": 350.0, 
            "mail": 0.0, 
            "type": "passengers", 
            "force": 1, 
            "freight": 0.0
        }, 
        {
            "id": 74, 
            "source": 2969, 
            "target": 1915, 
            "origin": "SLC", 
            "dest": "JFK", 
            "number_plane": 4, 
            "dep_delay": 102.0, 
            "arr_delay": 111.0, 
            "passengers": 4122.0, 
            "number_carrier": 4, 
            "seats": 16800.0, 
            "mail": 19618.0, 
            "type": "mail", 
            "force": 1, 
            "freight": 0.0
        }, 
        {
            "id": 75, 
            "source": 2969, 
            "target": 2881, 
            "origin": "SLC", 
            "dest": "SAN", 
            "number_plane": 4, 
            "dep_delay": 79.0, 
            "arr_delay": 157.0, 
            "passengers": 2995.0, 
            "number_carrier": 4, 
            "seats": 17400.0, 
            "mail": 2178.0, 
            "type": "passengers", 
            "force": 1, 
            "freight": 18.0
        }, 
        {
            "id": 76, 
            "source": 2969, 
            "target": 1436, 
            "origin": "SLC", 
            "dest": "EWR", 
            "number_plane": 3, 
            "dep_delay": 49.0, 
            "arr_delay": 36.0, 
            "passengers": 338.0, 
            "number_carrier": 3, 
            "seats": 342.0, 
            "mail": 0.0, 
            "type": "passengers", 
            "force": 1, 
            "freight": 132.0
        }, 
        {
            "id": 77, 
            "source": 2969, 
            "target": 1202, 
            "origin": "SLC", 
            "dest": "CVG", 
            "number_plane": 3, 
            "dep_delay": 153.0, 
            "arr_delay": 191.0, 
            "passengers": 405.0, 
            "number_carrier": 1, 
            "seats": 426.0, 
            "mail": 0.0, 
            "type": "freight", 
            "force": 1, 
            "freight": 525.0
        }, 
        {
            "id": 78, 
            "source": 2969, 
            "target": 880, 
            "origin": "SLC", 
            "dest": "ATL", 
            "number_plane": 9, 
            "dep_delay": 176.0, 
            "arr_delay": 205.0, 
            "passengers": 666.0, 
            "number_carrier": 1, 
            "seats": 1116.0, 
            "mail": 0.0, 
            "type": "freight", 
            "force": 1, 
            "freight": 7974.0
        }, 
        {
            "id": 79, 
            "source": 2969, 
            "target": 2482, 
            "origin": "SLC", 
            "dest": "OGG", 
            "number_plane": 1, 
            "dep_delay": 8.0, 
            "arr_delay": 83.0, 
            "passengers": 241.0, 
            "number_carrier": 1, 
            "seats": 250.0, 
            "mail": 0.0, 
            "type": "freight", 
            "force": 1, 
            "freight": 580.0
        }, 
        {
            "id": 80, 
            "source": 2969, 
            "target": 3126, 
            "origin": "SLC", 
            "dest": "TPA", 
            "number_plane": 1, 
            "dep_delay": 12.0, 
            "arr_delay": 82.0, 
            "passengers": 0.0, 
            "number_carrier": 1, 
            "seats": 160.0, 
            "mail": 0.0, 
            "type": "unknown", 
            "force": 1, 
            "freight": 0.0
        }, 
        {
            "id": 81, 
            "source": 2969, 
            "target": 2061, 
            "origin": "SLC", 
            "dest": "LGA", 
            "number_plane": 1, 
            "dep_delay": 59.0, 
            "arr_delay": 70.0, 
            "passengers": 287.0, 
            "number_carrier": 1, 
            "seats": 366.0, 
            "mail": 0.0, 
            "type": "passengers", 
            "force": 1, 
            "freight": 0.0
        }, 
        {
            "id": 82, 
            "source": 2969, 
            "target": 1520, 
            "origin": "SLC", 
            "dest": "FLL", 
            "number_plane": 1, 
            "dep_delay": -2.0, 
            "arr_delay": -4.0, 
            "passengers": 134.0, 
            "number_carrier": 1, 
            "seats": 160.0, 
            "mail": 0.0, 
            "type": "freight", 
            "force": 1, 
            "freight": 720.0
        }, 
        {
            "id": 83, 
            "source": 2969, 
            "target": 2760, 
            "origin": "SLC", 
            "dest": "RDU", 
            "number_plane": 1, 
            "dep_delay": 9.0, 
            "arr_delay": -6.0, 
            "passengers": 0.0, 
            "number_carrier": 1, 
            "seats": 150.0, 
            "mail": 0.0, 
            "type": "unknown", 
            "force": 1, 
            "freight": 0.0
        }, 
        {
            "id": 84, 
            "source": 2969, 
            "target": 1835, 
            "origin": "SLC", 
            "dest": "IAD", 
            "number_plane": 1, 
            "dep_delay": 36.0, 
            "arr_delay": 22.0, 
            "passengers": 130.0, 
            "number_carrier": 1, 
            "seats": 182.0, 
            "mail": 0.0, 
            "type": "passengers", 
            "force": 1, 
            "freight": 3.0
        }, 
        {
            "id": 85, 
            "source": 2969, 
            "target": 1253, 
            "origin": "SLC", 
            "dest": "DCA", 
            "number_plane": 1, 
            "dep_delay": 46.0, 
            "arr_delay": 45.0, 
            "passengers": 158.0, 
            "number_carrier": 1, 
            "seats": 160.0, 
            "mail": 0.0, 
            "type": "passengers", 
            "force": 1, 
            "freight": 0.0
        }, 
        {
            "id": 86, 
            "source": 2969, 
            "target": 2212, 
            "origin": "SLC", 
            "dest": "MCO", 
            "number_plane": 2, 
            "dep_delay": 145.0, 
            "arr_delay": 123.0, 
            "passengers": 608.0, 
            "number_carrier": 1, 
            "seats": 730.0, 
            "mail": 0.0, 
            "type": "freight", 
            "force": 1, 
            "freight": 1366.0
        }, 
        {
            "id": 87, 
            "source": 2969, 
            "target": 839, 
            "origin": "SLC", 
            "dest": "ANC", 
            "number_plane": 1, 
            "dep_delay": -3.0, 
            "arr_delay": -20.0, 
            "passengers": 3911.0, 
            "number_carrier": 1, 
            "seats": 5300.0, 
            "mail": 0.0, 
            "type": "freight", 
            "force": 1, 
            "freight": 58618.0
        }, 
        {
            "id": 88, 
            "source": 2969, 
            "target": 993, 
            "origin": "SLC", 
            "dest": "BOS", 
            "number_plane": 2, 
            "dep_delay": 196.0, 
            "arr_delay": 187.0, 
            "passengers": 6180.0, 
            "number_carrier": 1, 
            "seats": 7360.0, 
            "mail": 0.0, 
            "type": "freight", 
            "force": 1, 
            "freight": 66788.0
        }, 
        {
            "id": 89, 
            "source": 2969, 
            "target": 1144, 
            "origin": "SLC", 
            "dest": "CLT", 
            "number_plane": 1, 
            "dep_delay": 38.0, 
            "arr_delay": 36.0, 
            "passengers": 150.0, 
            "number_carrier": 1, 
            "seats": 160.0, 
            "mail": 0.0, 
            "type": "passengers", 
            "force": 1, 
            "freight": 0.0
        }, 
        {
            "id": 90, 
            "source": 2969, 
            "target": 2613, 
            "origin": "SLC", 
            "dest": "PHL", 
            "number_plane": 1, 
            "dep_delay": 125.0, 
            "arr_delay": 120.0, 
            "passengers": 475.0, 
            "number_carrier": 1, 
            "seats": 480.0, 
            "mail": 0.0, 
            "type": "passengers", 
            "force": 1, 
            "freight": 112.0
        }, 
        {
            "id": 91, 
            "source": 2969, 
            "target": 1737, 
            "origin": "SLC", 
            "dest": "HNL", 
            "number_plane": 1, 
            "dep_delay": 34.0, 
            "arr_delay": 70.0, 
            "passengers": 6914.0, 
            "number_carrier": 1, 
            "seats": 8226.0, 
            "mail": 0.0, 
            "type": "freight", 
            "force": 1, 
            "freight": 227600.0
        }
    ]
}